{"status":"success","count":69,"pois":[{"id":"osm_27597198","name":"Falez Halk","type":"BEACH","lat":36.84686450000000235149855143390595912933349609375,"lng":30.7568054999999986875991453416645526885986328125,"desc":""},{"id":"osm_1713240345","name":"Finike Belediyesi Kad\u0131nlar Plaj\u0131","type":"BEACH","lat":36.28326359999999795036274008452892303466796875,"lng":30.1504134999999990895958035252988338470458984375,"desc":""},{"id":"osm_3598233864","name":"Larissa Inn Beach","type":"BEACH","lat":36.55467900000000014415491023100912570953369140625,"lng":30.567730399999998525117916869930922985076904296875,"desc":""},{"id":"osm_4824477203","name":"Yali Beach","type":"BEACH","lat":36.24783430000000095105860964395105838775634765625,"lng":29.330508800000000491081664222292602062225341796875,"desc":""},{"id":"osm_4955512152","name":"Blauhimmel beach","type":"BEACH","lat":36.55678350000000165209712577052414417266845703125,"lng":30.569776399999998517387211904861032962799072265625,"desc":""},{"id":"osm_5116183422","name":"Kara\u00f6z Plaj\u0131","type":"BEACH","lat":36.27448059999999685487637179903686046600341796875,"lng":30.40909690000000153986547957174479961395263671875,"desc":""},{"id":"osm_6082975970","name":"Aksu Belediyesi Halk Plaj\u0131","type":"BEACH","lat":36.85338420000000070331225288100540637969970703125,"lng":30.8866392999999987978299031965434551239013671875,"desc":""},{"id":"osm_8225101761","name":"\u03a0\u03bb\u03ac\u03ba\u03b5\u03c2","type":"BEACH","lat":36.16027170000000268146322923712432384490966796875,"lng":29.597705799999999953797669149935245513916015625,"desc":""},{"id":"osm_8666879194","name":"Actas Beach","type":"BEACH","lat":36.48009799999999813735485076904296875,"lng":29.107838799999999679357642889954149723052978515625,"desc":""},{"id":"osm_11228671984","name":"Green Pine Beach","type":"BEACH","lat":36.55212449999999790861693327315151691436767578125,"lng":29.116548300000001603393684490583837032318115234375,"desc":""},{"id":"osm_11228671989","name":"Paid Istanbul Hotel's Beach","type":"BEACH","lat":36.5572427000000033103788155131042003631591796875,"lng":30.570141799999998255543687264434993267059326171875,"desc":""},{"id":"osm_11228671990","name":"Paid Beach","type":"BEACH","lat":36.5571704999999980145730660296976566314697265625,"lng":30.570078099999999921010385151021182537078857421875,"desc":""},{"id":"osm_11261905187","name":"Bo\u011fa\u00e7ay\u0131 manzara teras\u0131","type":"BEACH","lat":36.85208899999999943020156933926045894622802734375,"lng":30.624874899999998234534359653480350971221923828125,"desc":""},{"id":"osm_13246235661","name":"KONYAALTI BEACH BY TRAM","type":"BEACH","lat":36.88361760000000089121385826729238033294677734375,"lng":30.676956499999999294914232450537383556365966796875,"desc":""},{"id":"osm_4516234","name":"Delik Ada","type":"BEACH","lat":36.79653780000000296013240586034953594207763671875,"lng":28.59719559999999916044544079340994358062744140625,"desc":""},{"id":"osm_28230901","name":"Kundu Plaj\u0131","type":"BEACH","lat":36.852959900000001880471245385706424713134765625,"lng":30.876295500000001226226231665350496768951416015625,"desc":""},{"id":"osm_28265679","name":"Adrasan","type":"BEACH","lat":36.303248899999999821375240571796894073486328125,"lng":30.46798319999999904439391684718430042266845703125,"desc":""},{"id":"osm_28320583","name":"\u00c7\u0131ral\u0131 Plaj\u0131","type":"BEACH","lat":36.40860789999999980182110448367893695831298828125,"lng":30.481479900000000071713657234795391559600830078125,"desc":""},{"id":"osm_28320917","name":"G\u00f6kliman Plaj\u0131","type":"BEACH","lat":36.27896899999999646979631506837904453277587890625,"lng":30.140257500000000590034687775187194347381591796875,"desc":""},{"id":"osm_37590224","name":"\u0130ztuzu Plaj\u0131","type":"BEACH","lat":36.78850899999999768397174193523824214935302734375,"lng":28.62195150000000154477675096131861209869384765625,"desc":""},{"id":"osm_40895914","name":"Limana\u011fz\u0131","type":"BEACH","lat":36.17255010000000226000338443554937839508056640625,"lng":29.650081799999998821704139118082821369171142578125,"desc":""},{"id":"osm_40895915","name":"\u00c7obanplaj\u0131","type":"BEACH","lat":36.1528373000000016190824680961668491363525390625,"lng":29.6577486999999990757714840583503246307373046875,"desc":""},{"id":"osm_40895920","name":"\u00c7ak\u0131l Plaj\u0131","type":"BEACH","lat":36.2338208999999977777406456880271434783935546875,"lng":29.9219295999999985724571160972118377685546875,"desc":""},{"id":"osm_93465591","name":"B\u00fcy\u00fck \u00c7ak\u0131l Plaj\u0131","type":"BEACH","lat":36.19175469999999705805748817510902881622314453125,"lng":29.651630399999998388693711603991687297821044921875,"desc":""},{"id":"osm_93481553","name":"Ak\u00e7agerme Halk Plaj\u0131","type":"BEACH","lat":36.206689199999999573265085928142070770263671875,"lng":29.6018100000000004001776687800884246826171875,"desc":""},{"id":"osm_96290208","name":"\u00c7aya\u011fz\u0131 Plaj\u0131","type":"BEACH","lat":36.2276336999999983845555107109248638153076171875,"lng":29.9434664999999995416146703064441680908203125,"desc":""},{"id":"osm_118749193","name":"B\u00fcy\u00fck \u00c7alt\u0131cak","type":"BEACH","lat":36.7851141000000012581949704326689243316650390625,"lng":30.573231799999998514749677269719541072845458984375,"desc":""},{"id":"osm_120444426","name":"Lara Plaj\u0131","type":"BEACH","lat":36.851903399999997645863913930952548980712890625,"lng":30.861129600000001715898179099895060062408447265625,"desc":""},{"id":"osm_123129591","name":"\u00c7oban plaj","type":"BEACH","lat":36.15406420000000053960320656187832355499267578125,"lng":29.65650959999999969340933603234589099884033203125,"desc":""},{"id":"osm_132821175","name":"Gemiler Koyu","type":"BEACH","lat":36.55824439999999952988218865357339382171630859375,"lng":29.060453800000001223224899149499833583831787109375,"desc":""},{"id":"osm_163358489","name":"Angel Beach","type":"BEACH","lat":36.85098479999999909750840743072330951690673828125,"lng":30.848784699999999503461367567069828510284423828125,"desc":""},{"id":"osm_164359587","name":"Sarsala","type":"BEACH","lat":36.662965200000002141678123734891414642333984375,"lng":28.850528700000001691705620032735168933868408203125,"desc":""},{"id":"osm_173800684","name":"Kleopatra Beach","type":"BEACH","lat":36.47971580000000102472768048755824565887451171875,"lng":30.517750299999999441524778376333415508270263671875,"desc":""},{"id":"osm_173800685","name":"Tekirova Beach","type":"BEACH","lat":36.46805630000000064683263190090656280517578125,"lng":30.506615499999998775138010387308895587921142578125,"desc":""},{"id":"osm_186962728","name":"Katranci","type":"BEACH","lat":36.68507269999999920173650025390088558197021484375,"lng":29.0575271000000014964825822971761226654052734375,"desc":""},{"id":"osm_186964750","name":"Karaot Halk Plaj\u0131","type":"BEACH","lat":36.6937477000000029647708288393914699554443359375,"lng":29.038895700000001198759491671808063983917236328125,"desc":""},{"id":"osm_187029014","name":"\u00c7al\u0131\u015f Plaj\u0131","type":"BEACH","lat":36.66734699999999946840034681372344493865966796875,"lng":29.09973550000000130921762320213019847869873046875,"desc":""},{"id":"osm_187043255","name":"B\u00fcy\u00fck Boncuklu Koyu","type":"BEACH","lat":36.62765749999999798092176206409931182861328125,"lng":29.077183399999999124929672689177095890045166015625,"desc":""},{"id":"osm_187043257","name":"k\u00fc\u00e7\u00fck Samanl\u0131k Plaj\u0131","type":"BEACH","lat":36.64386189999999743349690106697380542755126953125,"lng":29.091245300000000639784047962166368961334228515625,"desc":""},{"id":"osm_187043263","name":"Kuleli Plaj\u0131","type":"BEACH","lat":36.642901899999998249768395908176898956298828125,"lng":29.07636289999999945621311780996620655059814453125,"desc":""},{"id":"osm_187043265","name":"Silent Beach","type":"BEACH","lat":36.61676460000000332684066961519420146942138671875,"lng":29.075853399999999737701728008687496185302734375,"desc":""},{"id":"osm_187043269","name":"B\u00fcy\u00fck Samanl\u0131k Plaj\u0131","type":"BEACH","lat":36.64222389999999762721927254460752010345458984375,"lng":29.08534660000000116042428999207913875579833984375,"desc":""},{"id":"osm_187043272","name":"Alsazlar Beach","type":"BEACH","lat":36.63138020000000238951542996801435947418212890625,"lng":29.092916599999998794601197005249559879302978515625,"desc":""},{"id":"osm_187308701","name":"So\u011fuk Su Koyu","type":"BEACH","lat":36.5641954000000026780980988405644893646240234375,"lng":29.082355599999999640203895978629589080810546875,"desc":""},{"id":"osm_194299921","name":"Porto ceneviz koyu","type":"BEACH","lat":36.36451770000000038862708606757223606109619140625,"lng":30.50145549999999872170519665814936161041259765625,"desc":""},{"id":"osm_194938249","name":"\u0130ncebo\u011faz Plaj\u0131","type":"BEACH","lat":36.19974719999999734909579274244606494903564453125,"lng":29.624342200000000957516022026538848876953125,"desc":""},{"id":"osm_204830772","name":"Daima","type":"BEACH","lat":36.5639661000000018020728020928800106048583984375,"lng":30.576390499999998695557223982177674770355224609375,"desc":""},{"id":"osm_219697216","name":"Sar\u0131germe Plaj\u0131","type":"BEACH","lat":36.70253189999999676729203201830387115478515625,"lng":28.699417499999999137116901692934334278106689453125,"desc":""},{"id":"osm_241502641","name":"A\u015f\u0131 Koyu","type":"BEACH","lat":36.72284239999999755355020170100033283233642578125,"lng":28.648903799999999364445102401077747344970703125,"desc":""},{"id":"osm_245768747","name":"S\u00fcl\u00fckl\u00fc Plaji","type":"BEACH","lat":36.2203975999999983059751684777438640594482421875,"lng":29.97758209999999934325387584976851940155029296875,"desc":""},{"id":"osm_286079786","name":"Seyrek\u00e7ak\u0131l Beach","type":"BEACH","lat":36.21113559999999864658093429170548915863037109375,"lng":29.513134300000000820318746264092624187469482421875,"desc":""},{"id":"osm_292728284","name":"K\u00fc\u00e7\u00fck \u00c7ak\u0131l Plaj\u0131","type":"BEACH","lat":36.1974105999999977711922838352620601654052734375,"lng":29.64418020000000097979864221997559070587158203125,"desc":""},{"id":"osm_301776653","name":"Koca \u00c7al\u0131\u015f Plaj\u0131","type":"BEACH","lat":36.653492999999997437043930403888225555419921875,"lng":29.110339100000000911450115381740033626556396484375,"desc":""},{"id":"osm_356378609","name":"\u0130nlice Plaj\u0131","type":"BEACH","lat":36.730957300000000032014213502407073974609375,"lng":28.9682901999999984354872140102088451385498046875,"desc":""},{"id":"osm_356379151","name":"G\u00fcnl\u00fckl\u00fc Koyu","type":"BEACH","lat":36.71503779999999750316419522278010845184326171875,"lng":29.020494899999999205419953796081244945526123046875,"desc":""},{"id":"osm_380301961","name":"Mermerli beach","type":"BEACH","lat":36.88321549999999859892341191880404949188232421875,"lng":30.702804900000000287718648905865848064422607421875,"desc":""},{"id":"osm_390191470","name":"\u0130ncebo\u011faz Halk Plaj\u0131","type":"BEACH","lat":36.19804839999999757083060103468596935272216796875,"lng":29.61819489999999888141246628947556018829345703125,"desc":""},{"id":"osm_634398431","name":"Beldibi gizli koyu","type":"BEACH","lat":36.74578919999999726542228017933666706085205078125,"lng":30.569896499999998695784597657620906829833984375,"desc":""},{"id":"osm_699846212","name":"Kumburnu Plaj\u0131","type":"BEACH","lat":36.5500545000000016671037883497774600982666015625,"lng":29.11186839999999875772118684835731983184814453125,"desc":""},{"id":"osm_724760484","name":"\u0130nciralt\u0131 Plaj\u0131","type":"BEACH","lat":36.859828399999997827762854285538196563720703125,"lng":30.729000500000001494527168688364326953887939453125,"desc":""},{"id":"osm_737216015","name":"Korsan koyu","type":"BEACH","lat":36.85353500000000082081896835006773471832275390625,"lng":30.745712999999998515932020382024347782135009765625,"desc":""},{"id":"osm_881631641","name":"Finike Ma\u011fral\u0131 Koy","type":"BEACH","lat":36.250015300000001161606633104383945465087890625,"lng":30.1089793000000014444594853557646274566650390625,"desc":""},{"id":"osm_884460996","name":"\u039c\u03b1\u03bd\u03b4\u03c1\u03ac\u03ba\u03b9","type":"BEACH","lat":36.1474941999999970221324474550783634185791015625,"lng":29.598481400000000718364390195347368717193603515625,"desc":""},{"id":"osm_935255544","name":"Tekta\u015f Beach","type":"BEACH","lat":36.4750173999999987017872626893222332000732421875,"lng":29.10294830000000132486093207262456417083740234375,"desc":""},{"id":"osm_942631049","name":"Kad\u0131nlar plaj\u0131","type":"BEACH","lat":36.198152399999997896884451620280742645263671875,"lng":29.620431400000001076477929018437862396240234375,"desc":""},{"id":"osm_1155316038","name":"Trendy Lara Beach","type":"BEACH","lat":36.85395989999999954989107209257781505584716796875,"lng":30.92353779999999829897205927409231662750244140625,"desc":""},{"id":"kalkan_beach","name":"Kalkan Beach","type":"BEACH","lat":36.26299999999999812416717759333550930023193359375,"lng":29.416000000000000369482222595252096652984619140625,"desc":"Main beach in Kalkan town"},{"id":"kaputas_beach","name":"Kaputa\u015f Beach","type":"BEACH","lat":36.23440000000000082991391536779701709747314453125,"lng":29.4375,"desc":"Famous turquoise beach between Kalkan and Kas"},{"id":"patara_beach","name":"Patara Beach","type":"BEACH","lat":36.2650000000000005684341886080801486968994140625,"lng":29.285000000000000142108547152020037174224853515625,"desc":"18km long sandy beach, turtle nesting site"}]}